lat,lng,星级,餐厅名称
30.24868584,120.1728033,92,新白鹿餐厅(西湖银泰店)
30.246309,120.17412,94,高银美食街
30.23788398,120.1767713,88,南宋御街中华美食夜市
30.2583828,120.1700833,66,知味观·糕点(湖滨1店)
30.25647116,120.1471675,68,楼外楼(孤山路店)
30.24555268,120.1303104,90,弄堂里(龙井路店)
30.26391983,120.1708721,84,新丰小吃(庆春店)
30.25753212,120.1704617,88,杭州酒家
29.605716,119.034009,100,千岛湖鱼街
30.25661696,120.1768547,82,奎元馆(解放路总店)
30.24617806,120.1776816,90,咬不得高祖生煎(高银街店)
30.2564642,120.1703703,84,绿茶(湖滨店)
30.25758171,120.1340708,92,西子湖四季酒店·金沙厅
30.298556,120.108683,80,竞舟路美食街
30.25952911,120.1709749,80,弄堂里（湖滨银泰店）
30.23727608,120.1427091,82,知味观·味庄(杨公堤店)
29.61001015,119.0504544,86,千岛湖鱼味馆(千岛湖店)
29.60956219,119.0838148,90,千岛湖滨江希尔顿度假酒店BBQ自助餐
30.24630165,120.1771446,92,河坊街特色小吃
30.26048088,120.1684648,84,杭州君悦酒店·湖滨28中餐厅
30.24594263,120.1840902,92,老头儿油爆虾(姚园寺店)
30.244238,120.199035,80,近江海鲜美食街
30.27131417,120.0970164,100,外婆家(西溪天堂店)
30.245857,120.1722111,70,知味观(吴山广场店)
30.26760481,120.1660378,84,新白鹿餐厅(龙游路店)
30.267408,120.15923,80,保俶路美食街
30.245924,120.1772629,80,清河小吃
29.60645609,119.0320184,90,湖外湖(千岛湖大排档店)
29.61165118,119.0447927,100,千岛湖岛外新岛酒楼
30.28192848,120.1092621,80,知味观(文苑店)
30.23697662,120.1291962,86,绿茶(龙井路店)
30.272095,120.170088,80,百井坊巷美食街
30.24883415,120.1724702,82,绿茶餐厅(西湖银泰店)
30.27084479,120.1877094,70,李记酥鱼(凤起农贸市场店)
30.22328377,120.1415085,86,新榆园(虎跑店)
30.27986145,120.1675131,70,外婆家.第二乐章(杭州大厦店)
30.27485529,120.130931,80,浙大留学生食堂
29.60918984,119.0579087,76,秀水人家食府
30.24691349,120.108547,88,十方苑
30.24635696,120.1214943,90,旅马餐厅(灵隐店)
30.26415791,120.1300264,88,朴墅餐厅(青芝坞店)
30.2256124,120.1359032,84,灶丰年间(满陇桂雨店)
30.26244264,120.1272888,90,山外山菜馆(玉泉路店)
30.26509857,120.2019547,82,张生记(双菱店)
30.24618698,120.1766793,68,皇饭儿(高银街总店)
29.61076604,119.1012001,96,千岛湖钓鱼岛品鱼馆
30.24200439,120.1111722,92,素描餐厅
30.24573511,120.1780218,82,状元馆
30.22528839,120.1364469,90,桂语山房高级餐厅
30.240257,120.177352,84,菊英面店(中山南路店)
30.24729806,120.1755777,80,葱包桧
29.60936047,119.0839153,70,千岛湖希尔顿酒店泛亚餐厅
29.61205202,119.0454924,90,千岛鱼府
30.25526153,120.1691548,100,青藤茶馆(南山路店)
29.79299927,119.7036972,70,娘家
30.22744925,120.117434,88,龙井菜馆
30.26766396,120.1705799,66,新丰小吃
30.2656054,120.2112415,70,银泰美食城
30.23567025,120.1400211,100,La Villa Restaurant
30.24830463,120.1749771,100,福缘居酒楼
30.16974906,120.2520282,96,泰香阁
30.26917481,120.1697761,80,天香楼大酒店(天香楼大酒店)
30.28100661,120.1564183,90,外婆家(杭州马塍店)
30.17622742,120.1605283,80,垃圾街美食一条街
30.24554885,120.1312113,70,西湖边小吃店
30.27610252,120.1427095,90,杭州SOS酒吧
30.23460007,120.126297,82,茶人村-百年经典演绎杭帮味道
30.24332809,120.17749,86,新周记(鼓楼总店)
29.61425214,119.0457919,70,绿城千岛湖喜来登度假酒店采悦轩中餐厅
30.24331856,120.1408595,86,西湖国宾馆紫薇厅
30.22494316,120.1336719,100,飞鸟集
30.24028272,120.1769741,90,孙奶奶葱包烩
30.26692963,120.155394,100,纯真年代书吧(宝石山店)
30.27735825,120.1645563,70,甘其食(武林路店)
30.23523903,120.1392081,80,解香楼
30.25664969,120.1832448,100,奎元馆
30.25778639,120.17052,84,1921湖景餐厅(1921湖景餐厅店)
30.07915674,120.0070978,70,富春山居度假酒店▪亚洲餐厅
30.22994183,120.2037022,100,杭州尊蓝钱江豪华精选酒店
30.27829756,120.1682714,90,外婆家●杭儿风(杭州大厦B座店)
30.27375221,120.1672505,86,老头儿油爆虾（武林店）
30.25943313,120.1730778,100,友好饭店西湖旋转全湖景餐厅
30.31573925,120.3504299,80,猫迷咖啡(猫咖啡馆)
29.86767927,119.8359633,80,荻浦人家
30.25796553,120.140845,96,咬不得高祖生煎(岳庙店)
30.23645555,120.1242003,90,汝拉·茶舍·西湖龙井私房菜(龙井路店)
30.25005847,120.1706654,100,徐记厨房私房菜
30.24115562,120.1805853,84,方老大面
30.35264355,119.4633776,70,天目山农家乐
30.32721146,120.1360031,100,mamala 西餐厅
30.18265435,120.148065,80,楼外楼
30.25311186,120.1671551,80,外婆家(西湖天地南山路店)
30.23566818,120.1401269,88,曼殊怀石料理
29.5868826,119.0486213,60,千岛湖渔村
30.24891393,120.1893131,100,舟山朱家尖东沙
30.30330896,120.174576,100,海底捞火锅(绍兴路店)
30.25743072,120.2070544,90,帕米尔餐厅
30.18049295,120.1463801,70,杭州餐饮
30.25557407,120.169667,76,新白鹿餐厅(解百新元华店)
30.28064346,120.0779478,70,汝拉小镇(西溪店)
30.25767326,120.1718247,84,吴山烤禽(吴山店)
30.27554494,120.1653397,70,浙江特产(武林店)
30.30414387,120.394191,70,多山海鲜自助火锅
30.23606972,120.3511968,70,烧烤园
30.26166344,120.167638,100,天天旺酒楼
30.21370125,120.1604453,80,德明饭店(八卦新村店)
30.25726025,120.0605974,100,西溪花间堂茴香餐厅
30.259976,120.22157,100,杭州柏悦酒店·潮餐厅&酒吧
30.32130051,120.3411026,80,翰坂自助餐(高沙店)
30.24627558,120.1779823,80,光复路小吃街
30.28809043,120.1828145,80,鼎燕餐厅
30.26913437,120.1698062,80,浙江饭店名人24小时餐厅
30.1848643,120.2686252,60,帝豪食府
30.3252171,120.3526454,70,香港岛餐厅
30.17694014,120.1039743,100,孙家正店
30.17662684,120.275203,90,锅内锅外(银隆店)
30.24619914,120.1745137,60,老杭州滋味
30.26350157,120.1755917,90,娃哈哈同乐大酒店
30.25,120.1302197,74,花房创意私厨
30.23289075,119.7170653,70,可莎蜜儿(城中店)
30.30396065,120.153287,100,妙醍醐素食自助餐馆(香积寺店)
30.24739647,120.1755765,100,高银巷美食街
29.8037457,119.705707,70,桐庐乡之味
29.610543,119.041555,70,鱼宴馆·农家菜(千岛湖总店)
30.24560165,120.1775884,84,御乐堂·戏茶食驿
30.22356606,120.1298848,84,格物餐厅
30.25943184,120.1344277,90,山外山·林语花园餐厅
30.26052,120.170042,60,外婆家(湖滨银泰in77店)
30.24279976,120.1825038,88,慧娟面馆·餐厅(望江路店)
30.25594236,120.1875006,80,新丰小吃(解放店)
30.30329514,120.161263,80,老头儿油爆虾(古水店)
30.2231366,120.1424212,90,隐上花园餐厅(虎跑路店)
30.26576839,120.1582127,80,酒旗风(西湖断桥店)
30.27608897,120.176999,100,外婆家(杭州杭报店)
30.24107439,120.4437516,88,萧山机场咖啡厅
30.17759323,120.2742848,100,新白鹿餐厅(萧山银隆店)
30.27526649,120.1703794,100,绿茶餐厅(百大店)
30.21378845,120.1514573,60,杭州味道
30.27650833,120.1473536,100,金橘餐厅(杭大店)
30.30205954,120.1642395,90,德泓面馆
30.48718718,120.196481,70,塘栖水乡酒楼
30.31348678,120.0905206,70,清真餐厅
30.259473,120.173086,100,湖月·割烹料理(湖滨店)
30.24963691,120.1722704,100,哥老官重庆美蛙鱼头(西湖银泰十一哥店)
30.24554882,120.2190872,100,泛海钓鱼台酒店·芳菲苑
30.353631,119.43596,100,西天目山龙凤竹农家乐
30.24549652,120.1974761,70,大唐沈家门海鲜(近江店)
30.22305192,120.1291921,80,山舍PillowBooks
30.27926014,120.1232296,60,凡老头米线砂锅
29.619469,119.051425,80,满意野生鱼馆
30.25454543,120.2187974,80,WIN HOUSE(来福士中心店)
30.25071261,120.2224766,100,川味观·毛肚火锅(来福士中心店)
29.60949701,119.0841161,80,滨江希尔顿度假酒店泛亚餐厅
30.26080866,120.1371365,100,老船长酒吧
30.28309822,120.1695019,94,新白鹿餐厅(西湖文化广场店)
30.25248528,120.1731359,86,灶丰年间（定安路店）
30.26857624,120.1580251,70,忠儿面馆(保俶路店)
30.23231697,120.1238769,84,龙井草堂
30.23242767,120.1035543,90,江南驿(上天竺店)
30.26639366,120.2105475,90,绿茶餐厅(庆春银泰店)
30.24145126,120.1039566,82,兰轩村庄食坊(安缦法云店)
30.28207117,120.1123513,60,顺旺基(竞舟路店)
30.28251293,120.1745917,80,和家院私房菜
30.26197739,120.1695315,40,西湖鱼
30.31823286,120.0983794,90,陇上秦轩biangbiang面(三墩温州村店)
30.17664194,120.1040742,70,叫花鸡
30.25995379,120.1711759,80,工联美食广场
30.23181575,120.1446141,80,皇觅楼
30.324761,120.149215,100,盒马鲜生(运河店)
30.279738,120.176443,100,杭州酒家
30.28342585,120.2123377,60,Oneday__.(创意设计中心店)
30.24198225,120.1628254,80,临湖素食
30.24535728,120.1706606,60,河坊美食街
30.24144817,120.1110324,60,她城有他
30.27368089,120.2194851,100,咬不得高祖生煎
30.27291905,120.149582,78,宴西湖
30.246537,120.177631,60,咬不得高祖生煎（解放路）
30.249719,120.171398,40,绿茶餐厅西湖银泰店
29.62195,119.048095,80,几荷
30.3071688,120.1125312,100,德天肥牛海鲜火锅
30.21255192,120.0941918,100,香芙茗茶楼
30.25644371,120.1718755,100,咬不得高祖生煎(解放店)
30.25948,120.170042,100,大兴糕团(湖滨银泰店)
30.26147234,120.1698724,100,古铺良食(学士路店)
30.24067481,120.163226,84,胡庆余堂药膳
30.24920082,120.1659012,82,西湖春天(南山店)
30.25667891,120.1778921,70,新开元大酒店
30.26059768,120.1681654,100,杭州君悦酒店·君府
30.2572033,120.2218853,80,鼎泰丰(富春路店)
30.22685049,120.1229942,70,依山依市美景餐厅
30.23482195,120.1999588,90,外婆家(杭州望江店)
30.2899659,120.1960043,80,杭州海底捞餐饮有限公司(天城路店)
30.29708707,120.1962878,80,楼外楼(三里亭店)
30.24559453,120.1972767,100,龙翔海鲜(近江路店)
30.27848738,120.0759992,60,西溪船菜馆
30.25819258,120.2212889,70,唐宫海鲜舫(富春路店)
29.59700012,119.1644974,80,青庐
30.27541508,120.1366412,60,渔山岛石浦海鲜
30.30620277,120.1750744,70,小店王绍兴菜馆
30.24786989,120.2201844,100,杭州洲际酒店日月轩中餐厅
30.25268583,120.1769865,70,西北人家清真风味馆(中山中路店)
30.37680959,120.0260329,80,良渚文化村食街
30.2682991,120.1656036,100,九井精致料理(凤起店)
30.25344276,120.167397,100,陆记饭庄
30.2816189,120.112172,60,情侣小火锅
30.29878531,120.1688615,70,胖哥美食
30.22805398,119.7124709,70,甜品时间
30.29961967,120.2123478,70,杭州小吃
30.26839423,120.1763961,100,御牛道日式料理炭火烤肉(二圣庙店)
30.286132,120.030097,80,盒马鲜生(淘宝城店)
30.337732,120.086178,100,傲椒餐厅
30.24898135,120.1773837,20,恒庐时尚杭帮菜
30.24665015,120.1647386,100,小黄楼英式下午茶(南山路店)
30.26569694,120.1682689,100,城中啤酒吧MidtownBrewery（杭州城中香格里拉大酒店）
30.24833698,120.1655437,80,BERNINI
30.22633285,120.1194984,100,甘庐(龙井店)
30.25684777,120.1715748,100,南洋炉•新加坡煮炒(吴山路店)
30.25088636,120.1687592,100,索菲特西湖大酒店
30.26244618,120.1717797,100,梅地亚自助餐
30.273615,120.167338,100,老头油爆虾（武林店）
30.24236167,120.1120299,90,樵食庭院餐厅
30.31195028,120.1306057,90,桐庐人家
29.5967601,119.0144989,100,千岛湖客运码头
30.27091799,120.1669658,90,弄堂里(武林皇后店)
30.22998619,120.2038211,80,尊蓝钱江豪华精选酒店澜亭中餐厅
30.26483542,120.1658587,90,鹤川日本料理(望湖店)
30.25329791,120.1674062,70,杭州名菜馆
30.3226575,120.3429947,70,古兰轩清真特色餐厅
30.15641664,120.0860666,100,萤火虫烧烤自助餐厅
30.27141229,120.0969169,100,柴田西点(西溪天堂栖悦城店店)
30.24933597,120.1724548,100,阿香米线(杭州西湖银泰城店)
30.27989155,120.1664836,100,库塔（新加坡餐厅杭州大厦店）
29.93940175,119.4478565,70,益红酒家分水店
30.22239494,120.1445395,86,马灯部落·西湖边的创意山景餐厅(四眼井店)
30.27891996,120.1739909,100,新白鹿餐厅(游泳馆店)
30.23896654,120.4432514,90,肯德基
30.23317922,120.1008672,70,灵隐斋堂
30.2583844,120.1772922,80,吴山烤禽店(光复店)
30.24704959,120.111038,80,翠薇园
30.250433,120.1144707,80,灵隐禅和源
30.31272518,120.1434363,60,YUNSHUI谣(云水谣)
30.31319454,120.1454435,90,汉舍小雅汉舍小馆
30.21085739,120.0944882,86,欣怡茶庄
30.25042915,120.1151587,80,小丫头餐厅
30.27546227,120.1706805,90,杭州大酒店旋转餐厅
30.2473793,120.1775826,100,暖空概念明信片咖啡馆
30.31854364,120.1484513,100,旅马餐厅(丝联店)
30.26726399,120.1252266,60,茶田吾舍
30.17782845,120.2751014,100,老头儿油爆虾(萧山银隆店)
30.26754345,120.133032,60,玲珑小吃(浙大玉泉店)
30.37608147,120.0294991,80,良渚君澜度假酒店·中餐厅
30.24620847,120.1745739,40,西月楼
30.26873089,120.1661618,70,锅内锅外(西湖店)
29.61024133,119.0511956,70,肯德基(淳安千岛湖店)
30.31579971,120.1343994,70,莫卡乡村(登云路店)
30.26089767,120.2049656,70,楼外楼(采荷店)
30.27939987,120.1673965,100,王品牛排(杭州武林店)
30.15666664,120.0827792,80,葡属豆捞
30.15983945,120.2391351,80,湘湖渔村
30.18601509,120.1556962,70,杭州福朋喜来登酒店品轩中餐厅
30.25753116,120.134528,70,杭州西子湖四季酒店WL Bistro西湖餐厅
30.26709175,120.1685734,90,杭三姐妹(横长寿路店)
29.62895234,119.044996,100,外婆湾鱼味馆(阳光店)
30.22470338,120.1314549,80,漫村陶餐厅
30.30379094,120.1624298,70,开化府胜利河小龙虾(胜利河美食街店)
29.90700255,119.9575927,80,孙权家菜馆
30.35523536,120.1975962,70,农家菜馆
30.27267844,120.1468753,100,云天阁自助餐厅
30.28027725,120.1635491,100,杭州JW万豪酒店万豪中餐厅
30.27033539,120.1342351,70,浙大玉泉五食堂
30.28067732,120.1634509,90,杭州JW万豪酒店·亚洲风尚自助餐厅
30.05406202,119.929869,70,富春山居湖廊居
30.24118952,120.1762733,90,游埠豆浆
30.26237834,120.1694716,100,疯辣火锅(湖滨店)
30.26142789,120.3199835,70,水博园风味餐厅
30.35415875,119.4826495,70,响板石农庄
30.25310292,120.0552826,100,张功馆(西溪印象城店)
30.16423689,120.2423294,90,湘湖游船
30.2512892,120.1765842,70,清真小吃
29.60316314,119.0200682,100,千岛湖润和建国度假酒店(建国中餐厅)
30.42707469,120.3151807,100,东北老家(临平店)
30.19408606,120.1685451,80,香港新曜记茶餐厅(滨盛店)
30.25330871,120.167356,70,西湖人家·荷韵杭帮菜
30.24821018,120.2223745,100,老头儿油爆虾(砂之船店)
30.24624443,120.1762471,60,知味观(味宅店)
30.27051035,120.2168172,80,锅内锅外(天虹店)
30.27821732,120.0763076,70,蒋村小吃
29.55406631,119.1289537,80,千岛湖洲际度假酒店·湖上全日餐厅
30.22641254,119.9931636,70,乡邻乡亲
29.60726845,119.1144638,100,千岛湖林海农庄
30.24716759,120.1124363,60,大众餐厅
30.04684471,119.9545187,100,富阳国贸大酒店自助餐厅
30.27445833,120.1480807,80,象山石浦海鲜城
30.27197838,119.6035763,40,指南村农家乐
30.321147,120.144834,80,清秋·素
30.261873,120.165545,60,亭西和风甜品(in77湖滨银泰店)
30.311403,120.149713,100,304Brunch Restaurant(远洋乐堤港店)
30.275259,120.168598,100,雷迪森酒店夏宫中餐厅
30.244078,120.153052,100,楼外楼(孤山路店)
30.214964,120.215147,80,成喜屋日本料理
29.66112175,119.0063592,100,千岛湖山湾湾民宿
30.26578779,120.1688713,60,猪爸(嘉里中心店)
30.25060225,120.1153285,100,阿福家餐厅
30.17663671,120.1037755,80,星巴克(宋城店)
30.26578628,120.1689717,100,VIDA花园餐厅(嘉里中心店)
29.97401966,120.1349998,20,牛歌山庄
30.27311655,120.1742918,100,上达堂·衢小馆(武林广场店)
30.261607,120.170366,100,大牌大传统菜
30.25849447,120.2213887,80,鲨鱼咬土司(万象城购物中心店)
30.2722077,120.1750939,100,付小姐在成都(屏风街店)
30.25064287,120.1658272,100,柳湖小筑餐厅
30.23603397,119.7331065,80,交通皇冠假日酒店浮玉轩西餐厅
30.28967738,120.1949966,100,新正元饭店
30.25203323,120.1725741,86,碧桃小馆(西湖大道店)
30.27510071,120.168602,100,雷迪森绿荫咖啡厅(国大店)
30.255507,120.169819,100,新白鹿新元华店
30.21258916,120.2108075,100,十秒到过桥米线(滨江店)
30.27488218,120.116698,84,天伦里餐厅
30.30133731,120.105613,70,呵罗餐厅(中天西城纪店)
30.17949549,120.199078,100,衢州美食
30.27024918,120.1390668,100,鸟语花香餐厅
30.23286341,120.1405204,70,诗夏精品咖啡
30.31598959,120.3307174,80,希尔顿逸林酒店E咖啡全日餐厅
30.31079747,120.3550203,80,光头温州海鲜排挡
30.17078333,120.0917065,100,清真轩东北风味
30.22163081,120.1428221,70,漫居主题度假酒店-船屋咖啡 Pirate Cafe
30.31210262,120.1020677,90,夏星酒馆(剑桥公社店)
30.13704634,120.1227616,70,HelloKitty港式甜品
29.7312829,119.6659346,60,惠涓野生鱼馆
30.29523892,120.1655515,80,朋友烧烤(河东路店)
30.21557564,120.2207604,80,青蜂(星光大道店)
30.17657918,120.27239,100,慧娟面馆(新天地旺角城店)
29.6110878,119.0614476,80,甜品来了
30.26324902,120.1832148,100,素缤纷精致素食自助式餐厅
30.2663742,120.1787003,60,甜品新语
30.18598137,120.2923426,60,胤隆国际水疗会所
30.24853408,120.1724699,70,小杨生煎(杭州西湖银泰)
30.19998537,120.196665,70,新白鹿餐厅(滨江店)
29.80645245,119.7027039,80,同路人大排档(阳光店)
30.30629261,120.1145262,80,新白鹿餐厅(城西银泰城店)
30.33120712,120.1444278,100,隐上花园餐厅(运河天地店)
30.32406471,120.1471418,60,知味观(运河店)
30.41082382,119.5735859,70,东天目山农家乐
30.24472427,120.1128944,100,悟空家素食主义餐厅(西溪湿地店)
29.612412,119.045296,80,岭上院子餐厅
30.227478,120.117433,76,天外天菜馆
30.24704853,120.1648394,84,玲珑小镇(南山路店)
30.25836318,120.1704723,90,老娘舅(延安路店)
29.60677214,119.0595142,82,北大荒淡水鱼馆(千岛湖广场店)
29.60972,119.052357,80,千岛湖聚福楼餐厅
29.6109356,119.0522968,80,碧波酒楼
30.27932293,120.1666649,60,外婆家(华浙店)
30.30428277,120.1520811,90,江南驿(运河店)
30.27739906,120.1520004,84,伊家鲜(保俶店)
30.24582291,120.177904,80,爆鳝面馆
30.25690317,120.1510851,80,COSTA COFFEE(杭州西泠)
30.37111566,119.574178,70,临安神农仙居
30.23986626,120.1631082,82,红泥砂锅大酒店(南山店)
30.26334,120.1310273,100,火狐狸(玉古店)
30.27417055,120.1530028,80,忠儿面馆(西溪路店)
30.27807974,120.1681309,80,鸟语花香•三缘酒楼
30.28384951,120.132031,90,外婆家(杭州计量大厦店)
30.25265887,120.1805932,90,小小馄饨店(火车城站店)
30.25992966,120.1691185,82,炉鱼(利星广场店)
30.24994339,120.1889943,100,大娘水饺(城站店)
30.26330566,120.0664735,80,西溪度假酒店·中餐厅
30.245855,120.173745,60,定胜糕小店
30.25319678,120.0558843,80,山葵家精致料理寿司吧(西溪印象城店)
30.27864659,120.1596339,60,浙江大学西溪校区食堂
30.29310036,120.1736984,100,蟹庭丰蟹黄汤包(新市街店)
29.78929081,119.7010039,60,桐庐窄溪野生鱼馆(桐庐店)
30.26320076,120.1660995,80,八色烤肉(湖滨店)
30.26044854,120.2189019,100,老品芳
30.25379372,120.0579453,60,弄堂里(西溪印象城店)
30.25839804,120.1513877,80,山外正味(孤山店)
30.27564473,120.0668102,70,烟水渔庄餐厅
30.27466126,120.1535051,80,可莎蜜兒(保俶路店)
30.25777311,120.1402429,100,星巴克(曲院风荷店)
30.279192,120.164033,100,纳德食尚自助餐厅
30.42554661,120.3104895,90,85度C(临平店)
29.55574258,119.1275597,90,羡山饭店
30.25128937,120.1732852,100,港丽酒家(西湖大道店)
30.27038584,120.134175,60,浙江大学六食堂
30.25810623,120.1710089,82,第二乐章（杭州湖滨银泰店）
30.30356464,120.1121361,90,东北一锅香(丰潭店)
30.26705481,120.2019803,100,咬不得高祖生煎(双菱店)
30.12866837,120.1941863,70,最忆西餐厅
30.2920584,120.1049739,80,玖点牛蛙火锅(古墩路店)
30.31571082,120.0971872,70,紫金港堕落街
30.19075775,120.170557,80,台州府(江南大道店)
30.22879226,120.4156613,60,迪欧咖啡(萧山机场店)
30.28010559,120.1677028,80,西树泡芙(杭州大厦店)
30.26170728,120.1675638,80,菲乐餐厅(白傅路店)
30.26461251,120.1672644,80,巴黎阳光西餐厅(庆春路店)
29.48044427,119.2818011,94,严州府(建德店)
30.28287,120.112022,70,竞舟野渔馆
30.27335035,120.0936329,80,悦榕庄白云中餐厅
30.23853073,120.1590246,100,浙江西子宾馆牡丹厅
30.25948828,120.1687669,100,Mulinaccio 莫里纳乔·餐厅(湖滨银泰in77店)
30.24248886,120.1121928,90,美宏馆(梅灵北路店)
30.18412627,120.2696705,70,杭州萧山众安假日酒店
30.23510604,120.0472379,70,浙江工业大学屏峰校区家和堂
30.25940399,120.1752881,80,杭州华辰国际饭店
30.25832271,120.1873026,90,吉川居酒屋
30.29949511,120.1971834,100,老李饺子馆(三里亭路店)
30.15031017,120.2357418,80,西苑跨湖楼大酒店
29.89275652,119.5413427,40,仙宾楼
30.25934338,120.1878033,80,三上料理(杭州大厦购物城店)
30.26848356,120.1411325,90,川味泡菜馆(曙光路店)
30.23107737,120.0490417,70,清真轩东北风味菜馆
30.21758776,120.176058,100,新食枫川菜
30.28186991,120.1122517,70,二十口米麦子食坊
30.20154307,120.121099,70,九溪缘烧烤
30.32369399,120.1453347,100,山葵家精致料理寿司吧(运河店)
30.24315339,120.4422591,80,麦当劳(萧山国际机场T3航站楼店)
30.06604067,119.9476896,90,一锅二吃
30.15621758,120.2364444,80,新亭子饭店(湘湖店)
30.24524307,120.1145088,90,拾年主题餐厅
30.27605568,120.1818073,80,名人名家(浙报店)
30.22755065,119.7118714,80,七欣天品蟹轩(临安万华广场店)
30.28455051,120.1318304,100,品记煲(万塘路店)
30.26554966,120.1319293,60,玉泉饭店餐厅
30.18608394,120.1557564,80,宜客乐西餐厅
30.26684337,120.1330316,80,浙大留学生餐厅
30.25780524,120.2219854,100,COSTA COFFEE(杭州万象城)
30.27343625,120.0947191,80,西溪喜来登采悦轩中餐厅
30.2502899,120.176483,60,楼外楼熟食店(后市街店)
30.25902838,120.1435553,70,香宫(杭州香格里拉饭店)
30.16945716,120.0885515,100,味港餐厅
30.25955173,120.1345096,70,玉泉游泳池茶室
30.19665745,120.1254996,80,九溪鱼乐农庄
30.27697427,120.1528019,70,衢记三宝(保俶路店)
30.28505246,120.1214297,60,阿郭冰室(华星路店)
30.28297156,120.1472761,60,浙大西溪校区美食坊
30.31728215,120.397293,70,浙江工商大学下沙食堂
30.04687455,119.9544987,80,富阳国际贸易中心大酒店中餐厅
30.28358856,120.1769974,80,肯德基(杭州钛合店)
30.26017943,120.1693697,100,满记甜品(利星店)
30.26444889,120.1899056,80,千岛湖鱼味馆(庆春店)
30.2660127,120.1672651,70,大陈羊肉串
30.29337883,120.1524968,70,西岛咖啡
30.05697417,119.9546907,70,鸡喔喔
30.30387688,120.1627029,100,鸡啤咯哒(树人店)
30.31276131,120.2687564,60,九龙饭店
30.38489994,120.1148412,60,香喔本鸡煲
30.25869373,120.1762901,70,东方金座公寓酒店-咖啡厅
30.24998572,120.2108706,70,烧烤
30.3038063,120.1625292,60,望江门小龙虾
30.1652956,120.0847695,100,印象坊餐厅
30.23884131,120.2079325,80,知味观(近江花园店)
30.25328539,120.0570873,80,BreadTalk面包新语(西溪印象城店)
30.23870087,120.134697,80,浙江宾馆-柳莺厅
30.39133802,120.2539345,60,伦纳咖啡(余杭店)
30.2544812,120.1691642,100,勇寿司专门店
30.3097496,120.1806035,70,开化钱江源鱼馆
0,0,70,知味观(亲亲家园店)
29.80072006,119.6932171,80,同路人大牌档(城中店)
30.28479958,120.1567993,80,Zoo Coffee(杭州锐明大厦旗舰店)
30.29047412,120.2175989,70,桐庐乡村土菜馆
30.32411142,120.2558694,70,忂州人家土菜馆
30.27164309,120.1426588,100,老娘舅餐厅(曙光路店)
30.31160296,120.3420682,70,江南公社
30.27364159,120.1655571,70,板栗酥饼
30.21477279,120.4031113,70,德红牛肉馆
30.28187336,120.0589019,90,杭州西溪宾馆 松露西餐厅
30.17022755,120.0930108,100,桐庐土菜馆
30.18816577,119.113582,80,龙井源山庄
30.01353775,119.9090733,70,杉林草堂
30.22494483,119.7024714,80,益红酒家(玲珑山店)
30.3463854,120.1012607,80,必胜客(杭州西田店)
30.3270092,120.3484322,70,清真西北面馆(学源街店)
30.30680084,120.1149979,100,王品牛排(城西银泰店)
29.72821052,118.7971035,70,天外天食府
30.29751205,120.104289,60,衢州饭店(古墩路冠苑店)
30.29317626,120.1323558,70,新疆乌鲁木齐囊饼
30.26957529,120.1786014,60,鲍家菜馆
30.26814993,120.2136315,60,千岛湖土菜馆·菜品每日新鲜供给
30.30886882,119.4589806,100,天目一号山里人家
30.24316444,120.1122301,70,素面馆
30.29641914,120.1151699,60,桂林仔桂林米粉
30.38449603,120.0561941,60,金华砂锅·小龙虾(良渚店)
30.28490067,120.1623001,80,粥皇餐厅(文晖店)
30.18223953,120.2744921,80,宝盛宾馆钱塘轩
30.18600464,120.1558733,70,杭州龙禧福朋喜来登宜客乐西餐厅
30.26549384,120.1967948,70,川浙会(凯旋店)
30.2708627,120.0956184,82,美泰泰国餐厅(西溪店)
30.26536187,120.1927028,50,婆婆馄饨(刀茅巷店)
30.48284288,120.1894875,80,江南阿二(塘栖店)
30.26198006,120.1676282,80,小南国（白傅路店）
30.25359535,120.1397951,70,湛碧楼
30.1907218,120.1663395,100,江南大院
30.289108,120.170006,100,似水流年餐厅
30.32213908,120.4011674,70,杭州师范大学下沙校区食堂
30.18165195,120.2737917,70,新丰小吃(北干店)
29.64595413,119.0681358,70,千岛湖鱼排
30.27770224,120.1679703,100,鱼出没自助寿司(杭州大厦购物城店)
30.24583964,120.1860909,70,老郑盐蘸牛肉(火车站店)
30.270885,120.166921,82,辣府(武林路店)
30.17386055,120.0994997,100,西北牛肉面
30.26132909,120.3200832,70,海纳西餐厅
30.3081144,120.1442439,70,葱包烩鸡蛋饼摊
30.31522917,120.3586078,90,鸡啤咯哒(下沙店)
30.37346077,120.033728,80,江南驿(良渚文化村店)
30.25411865,120.135928,70,吾舍
30.24437714,120.1307276,80,耕读堂
29.55486709,119.1295711,70,千岛湖州际度假酒店咖啡厅
30.26905081,120.1829073,90,一鸣真鲜奶吧(杭州新华路奶吧)
30.31591266,120.0972866,60,老四川(富顺豆花饭庄)
30.26083183,120.1510908,70,北山之夜美食街
30.27080281,120.2164192,100,北疆饭店(天虹购物中心店)
30.26450672,120.2278648,80,粥饭世家(庆谐店)
30.26170158,120.2274653,70,天元大厦棋府大厅
29.90794339,119.5488829,40,龙凤大酒店
30.48384286,120.1893886,70,康乾食府
30.20581468,120.2174786,80,妈妈乐餐厅
30.25337367,120.0584903,80,炉鱼(西溪印象城店)
30.26580823,120.1362274,100,海皇星生态乐园
30.24636811,120.213216,100,杭州钱江新城万怡酒店咖啡室
30.27295191,120.1316316,70,浙大清真食堂
29.47830009,119.2809982,70,小吃夜市
30.16433626,120.2541345,70,守敏蒸菜馆
30.28067555,120.1635513,70,JW万豪酒店大堂吧
30.32379398,120.1453346,70,T COFFEE
30.30659254,120.1145259,100,蓝之莲(杭州城西银泰城店)
30.27269646,120.1761968,100,潮东东潮州菜
30.25301216,120.0553527,100,阿香米线(西溪印象城店)
30.19146268,120.1228059,90,热土庄园
30.25357372,120.0584905,100,太兴餐厅(西溪印象城店)
30.25747829,119.0833427,70,峡谷餐厅(浙西大峡谷店)
30.22193718,120.1424224,80,大叔的店
30.26485032,120.1903055,80,蒸点茶餐厅
30.2810173,120.0034472,70,娘舅羊锅
30.2329775,120.1773684,70,方传面馆
30.28206503,120.1265277,70,千食餐厅
30.29122674,120.1998831,60,老汤面疙瘩
30.25317928,120.0577887,80,青转骨汤小火锅(西溪印象城店)
30.32180257,120.3421591,100,胖哥俩肉蟹煲(学林街店)
30.27279452,120.1763973,80,香樟雅苑私房菜
30.2689426,120.1654589,90,温德姆至尊豪廷大酒店·西餐厅
30.26849937,120.0837674,80,岳湖楼西溪御庭酒店
30.23020363,120.159074,80,南山人家
30.31704062,120.0987785,70,大长今韩国料理(紫金港校区店)
30.26865666,120.1656326,86,温德姆至尊豪廷·萨瓦迪泰餐厅
30.18385065,120.2738297,90,开元名都大酒店宴会厅
30.29228002,120.1523935,70,香园饭店博意海鲜自助
30.25663376,120.181396,70,中维香溢雅苑大堂吧
30.27245025,120.2136328,60,新白鹿餐厅(新塘店)
30.2462176,120.1737716,60,紫金阁杭州家常菜(河坊街店)
30.3149,120.333623,80,不万能先生老火锅龙虾生蚝烤鱼(龙湖店)
30.268099,120.170015,80,小野寺(嘉里中心店)
30.279145,120.165248,80,哥老官重庆美蛙鱼头(杭州大厦二十哥店)
30.206526,120.210271,80,Au79 Brunch(龙湖滨江天街店)
30.269502,120.216918,100,王三火锅烤肉(凤起东路店)
30.254052,120.219683,80,等渔你·鲜鱼煲(来福士中心店)
30.255473,120.165705,100,粉酷影像集合咖啡馆
30.268101,120.170017,100,蒲点美食汇
30.268372,120.175769,100,Black Burger(中山北路店)
30.270851,120.166644,100,Lukho泸荷
30.267646,120.166603,80,丧茶SUNGTEA(西湖店)
30.325069,120.349141,100,LaBamba 拉芭玛·墨西哥餐吧
30.271063,120.16653,80,花泰 Blooming Thai
30.206879,120.211277,100,MR.MAGIC RESTAURANT & BAR摩奇先生(滨江店)
30.312326,120.148468,80,捞神汤物料理(远洋乐堤港店)
30.364558,120.291518,20,郡悦酒店
30.298768,120.074987,80,FORKS&SPOONS叉子汤勺食集(西溪谷店)
30.268199,120.16408,100,蔡嘉食馆
30.268149,120.205911,80,马苏娅MAX SONIA CAFE(杭州大厦501店)
30.271577,120.210644,80,一品酸度·川菜·酸菜鲈鱼(凤起东路店)
30.311848,120.149472,60,上达堂·衢小馆(远洋乐堤港店)
30.31024728,120.1483585,80,弥茶(远洋乐堤港店)
30.25968291,120.1774936,100,王三火锅烤肉(平海路店)
30.31082621,120.1495631,100,thank u mom 谢谢妈妈炸鸡(远洋乐堤港店)
30.24590083,120.1752755,100,南宋胡记(河坊街店)
30.24898135,120.1773837,100,黄氏正轩牛奶甜品专家(南宋御街店)
30.27309169,120.1766981,80,black rainbow coffee
30.2669128,120.1672656,80,付小姐在成都(武林路店)
30.2829148,120.1366401,80,空羽居酒屋
30.31715586,120.1586997,100,三花屋 Mihhanaya
30.31674202,120.2850287,80,新发现(东城广场店)
30.24046546,120.4431532,100,康师傅私房牛肉面(萧山机场T1店)
30.24854659,120.1829921,100,宝美点心
30.26599084,120.1686706,80,畔丹PanDan(嘉里中心店)
30.2793262,120.1664641,90,董鲜生·海胆水饺(杭州大厦购物城店)
30.27092123,120.166765,100,唔该晒餐室(皇后公园店)
30.24652927,120.1821792,80,资董窝玺 coffee
30.26577592,120.1580238,100,彩云轩西湖景观餐厅
30.31636133,120.0891242,80,tony’s house
29.6193402,119.051395,80,全乐鱼馆·野生湖鲜
30.26378632,120.1869032,20,五洋宾馆
30.27733618,120.1733823,100,初壹抹茶(武林店)
29.47796,118.676243,100,江百味
30.28020785,120.1079157,86,无二锅物料理(WOW)
30.28027725,120.1635491,78,JW万豪Cru扒房
30.226344,120.134179,60,对白茶舍
29.478632,118.678015,92,文渊狮城十八碗餐厅
30.28054026,120.1428596,80,叩客冰室
30.31404942,120.3284293,80,西旺茶餐厅(下沙店)
30.173065,120.09742,100,阿拉家常菜
30.2894234,120.2065601,20,薄氏捞烫(华润万家店)
30.27949597,120.1683716,60,妙诗西点(杭州大厦购物城店)
30.31329918,120.3443985,70,来自星星的韩式炸鸡
30.29362431,120.1664566,80,月泷轩(河东路店)
30.28885596,120.1112518,90,春熙禄·宽窄巷子(竞舟路店)
30.27132172,120.1556145,100,西湖鱼小海鲜(断桥店)
30.21206957,120.1633126,90,新开元大酒店(复兴店)
30.35852062,120.2386796,70,德派时尚自助火锅
30.31179181,120.1014708,80,韩妈来了(紫金港店)
30.16952138,120.0945421,100,速味居黄焖鸡米饭
30.19474599,120.1214043,100,云逸茶楼
30.33675522,120.1270897,80,丰和日丽(拱墅店)
30.18910081,120.2575215,70,鲨鱼咬土司(加州店)
30.311903,120.3386463,70,衢州人家私房菜(中沙店)
30.2934808,120.2099425,100,醉窑里·杭城必选衢州野鱼妈妈菜
30.15410042,120.2647696,70,那由他咖啡
30.24628068,120.1690557,70,吴山品悦精选酒店(原吴山酩楼)
30.27010465,120.2165185,90,朴素九段烧(天虹百货店)
30.31841291,120.1360088,70,桐庐鱼头煲(和睦路店)
30.325018,120.149853,100,新白鹿餐厅(运河上街店)
29.35743461,119.1917576,70,千岛湖通用机场
29.49333572,119.3059175,60,半岛凯豪大酒店嘉宾厅
30.2172554,120.2089158,100,夏日花园 咖啡.小厨
30.24499845,120.1976751,80,好运来海鲜
30.30010745,120.1021793,100,鱼班长·鲜鱼成煲(五洲国际店)
30.27089527,120.2160211,94,胖哥俩肉蟹煲(天虹店)
29.6055484,119.0314208,100,“宝荣鱼馆”千岛湖大排档10号
30.20779964,120.1999116,70,杭州滨江区思烤者 烧烤小吃店
30.22394854,120.0389941,70,留夏小筑
30.25841713,120.1699383,70,知味观甜品(仁和路店)
30.38834497,120.067709,80,农夫乐园东田度假酒店餐厅
29.61102916,119.0411658,70,千岛湖•梦想1号大型豪华游艇
30.18175005,120.273892,80,乡之味
30.33800852,120.0861279,100,舌上美味自助烧烤(三墩店)
30.32183787,120.2742753,80,华莱士(金堡店)
29.91696245,119.5278299,70,老娘舅饭店(白冷线店)
30.23154576,120.20185,80,Russell Coffee 拉塞尔咖啡馆
30.25052452,120.1147588,100,百乐饭店
30.26040077,120.1703033,80,山葵家精致料理寿司吧(湖滨银泰in77店)
29.6447605,119.0786085,40,楼台渔庄
29.58891098,119.2144683,80,阿美农庄
30.28038005,120.1398496,90,川味泡菜馆(黄姑山路店)
30.3227005,120.3432007,90,卿古炭火烤肉(高沙店)
30.31046682,120.1582036,90,九龙巴士茶餐厅(水晶城店)
30.26440217,120.1269765,60,方圆食里
30.24160731,120.205844,70,港泰煲仔饭(老底子锅巴饭)
30.16685295,120.096264,80,韩香客韩国料理
30.32942223,120.1434246,100,榴莲有你
30.33695529,120.1269897,90,锅内锅外(万达广场店)
30.33224794,120.1813685,90,院子餐厅(中大银泰城店)
29.61043988,119.0514958,100,方英猪蹄
30.2671866,120.1586863,82,菊酒屋
30.30618364,120.1391286,70,滋味面馆
30.24683985,120.1861919,70,留夫鸭(江城路二店)
30.23016514,120.203244,80,静岸自助餐厅 尊蓝钱江豪华精选
30.31729473,120.3310149,100,罗云洞韩国饭店
30.2532965,120.1758844,90,CHEN  cafe&restaurant
30.25347216,120.0586908,100,张生记(西溪印象城店)
30.29654558,120.1837988,100,大鼓米线(和平广场店)
30.21622015,120.2124994,90,停不了小龙虾大闸蟹(滨江店)
30.26200612,120.167618,80,臻货(湖滨店)
30.38401115,120.1159378,60,新杭果食堂
30.18075321,120.2247673,70,鼎香餐饮
30.25768695,120.1769909,60,大排档
30.28094456,120.1875094,80,英英面馆
30.16424257,120.253233,70,湘君蒸菜馆
30.28327765,120.1695751,80,哈根达斯(西湖文化广场店)
30.31831649,120.2808086,70,饭大姐美食
30.25393867,120.1334217,70,金沙居
30.24205208,120.1645302,70,千味豆花(南山路店)
30.37997841,119.7265426,100,奚氏山庄农家乐
30.22816599,120.1607846,80,隐居西湖酒店清凡乡(清凡乡花园餐厅)
30.25034373,120.1890947,80,真功夫(杭州城站店)
30.21401724,120.14985,88,中国杭帮菜博物馆
30.06458282,119.9455173,90,灶丰年间味工房
29.60705049,119.0485946,80,排岭记忆(喜洋洋店)
30.24631073,120.1743734,40,老杭州邻家菜酒楼
29.62154966,119.0487932,90,琦记野生鱼馆•农家菜
30.24631073,120.1743734,40,小绍欣·味品经典杭帮菜(高银街店)
30.24888309,120.1771832,100,斯利美(Seven Ice)
29.61904019,119.051395,80,近湖野生鱼味馆
30.28105164,120.0982714,70,老头儿油爆虾(文三西路店)
29.61225144,119.0449925,90,千岛湖丽湖鱼餐厅
30.25564369,120.1847,90,张生记(天工店)
29.60869303,119.0576081,80,雪鲜鱼庄汽锅鱼
30.25994051,120.1721793,80,浮力森林(平海店)
29.59165615,120.4203781,100,西塘陆氏小馄饨摊
30.30843735,120.1494239,80,运河阿二&星龙海鲜(大兜路店)
30.25578474,120.1771898,90,百家鸡味馆(官巷口店)
30.25867037,120.1699707,80,CoCo都可(东坡路店)
30.24560165,120.1778613,80,羊汤饭店(中山中路店)
30.27284095,120.1038848,80,外婆家(联合大厦店)
30.25292153,120.1665524,80,星巴克(西湖天地店)
30.28657726,120.1695735,80,奎元馆(文晖店)
30.267412,120.1287772,60,浙江大学玉泉校区一食堂
30.24722389,120.4414091,20,味千拉面(萧山机场店)
30.25737446,120.1696686,80,满记甜品(湖滨店)
30.23176364,120.1472447,70,翠庄
30.24609756,120.1755752,60,老江南
30.2526231,120.1664517,80,哈根达斯(西湖天地店)
30.28494882,120.1898067,90,知味观(流水苑店)
30.24494434,120.1833887,80,晓麟家(江城路旗舰店)
30.30579052,120.1143272,70,炉鱼(城西银泰城店)
30.35091972,114.3273216,70,五峰草堂
30.24630547,120.1783161,70,阿良面馆
30.31268367,120.3538218,100,咬不得高祖生煎(新美店)
30.24586131,120.1734503,80,DQ冰雪皇后(清河坊店)
30.24754555,120.171566,80,寿康永
30.26560229,120.1566171,40,两岸咖啡(断桥店)
30.2235183,120.1408479,88,兰桂坊花园餐厅
30.29584216,120.1653501,50,弄堂里(河东路店)
30.30276126,120.1586132,90,鑫隆鸡爪王(胜利河店)
30.26579866,120.1321197,70,浙菜楼(玉泉店)
30.27132981,120.1879958,80,必胜客(杭州大厦店)
30.27530151,120.1756958,90,咬不得高祖生煎(体育场路店)
30.3084215,120.1498669,100,绿茶(大兜路店)
30.28414417,120.2011831,100,光头面馆
30.24118384,120.1627242,80,欧麦印度小厨
30.06644047,119.9475892,60,同忆餐厅(富阳店)
30.28479958,120.1063995,100,一席地鸡窝(金田店)
30.25738689,120.1769907,90,千串屋本铺(中山中路店)
30.27665738,120.1304306,90,PANINI咖啡·轻食
30.21506918,120.1399117,80,虎跑会馆
30.18336458,120.2730867,80,知味观(市心中路店)
30.32453097,120.1627129,70,永康肉麦饼(舟山东路店)
30.27967561,120.1635516,80,大渔铁板烧(湖墅南路店)
30.2640667,120.1795972,80,花中城·海鲜店
30.27488628,120.2101492,90,张功馆(景芳店)
30.24883376,120.1657451,60,亿多瑞站·餐吧
30.25544357,120.1846012,80,小厨帅沈家门小海鲜
30.30654716,120.1825905,80,阿咪香韩国烧烤(德胜路店)
30.28109117,120.0774552,80,西西里石锅鱼
30.26255881,120.1694416,80,御荣府火锅(东坡店)
30.28919983,120.1439972,80,巴黎贝甜(文二路店)
30.30228806,120.1685595,60,新芦栖
30.30396251,120.1531865,80,围龙三寻
30.24604324,120.1323133,80,清溪余韵·花园餐厅
30.26000892,120.144861,100,巴比诺(香格里拉饭店)
30.27358242,120.1692753,80,大甜九港式甜品
30.19662459,119.1286758,70,峡谷第一家
30.2599144,120.1691156,84,锅小二·养心鸡汤锅
30.29275527,120.111249,80,火龙堂 · 秘制碳烤羊排(文一路店)
30.28346062,120.1414559,80,巧燕坊燕皮馄饨(文三路店)
30.24258995,120.1830516,80,平乐面馆
30.28340912,120.138962,80,黑泷堂(文三路店)
30.25720024,120.1736984,60,一席地鸡窝(邮电路店)
29.61092732,119.0629237,80,农家土菜馆(千岛湖店)
30.27847481,120.0754534,60,里约餐厅
30.17154947,119.2294026,100,林木面馆
30.43079262,120.0559725,100,龙荷农业生态园
30.04631292,119.1706789,100,老地方土家菜
29.48103065,118.6701283,100,遂安大酒店
30.28514937,120.1320304,80,慧娟面馆.餐厅(华星路店)
30.25756408,120.1417075,60,跨虹阁
30.21915355,120.1243907,100,江南茶语庭院餐厅
30.24357224,120.1038679,80,云林斋菜
29.80095886,119.6909799,60,七里人家
30.27735663,120.1481811,80,甘其食(天目山路店)
30.27134589,120.142458,80,麦当劳(杭州黄龙店)
30.24974409,120.189294,100,肯德基(杭州城站店)
30.25479136,120.1736396,80,上品小鲜
30.2593818,120.2206926,80,满记甜品(万象城购物中心店)
30.24313566,120.1655384,80,好彩馆(南山路店)
30.28545244,120.1314295,40,弄堂里(万塘路店)
30.31340027,120.145401,86,隐泉日式餐厅
30.17055501,120.2846512,80,咬不得高祖生煎(萧绍路店)
30.2551899,120.1685651,60,奶茶博士(一公园店)
30.24487772,120.1776802,70,满记甜品(南宋御街店)
30.26406329,120.125025,60,热意餐厅(青芝坞店)
30.26250076,120.1668014,60,泰蕉(湖滨店)
30.29144511,120.159628,90,宝岛金点烘焙坊(潮王店)
30.22659647,120.160201,90,曼陀林庭院餐厅
30.26315374,120.1310268,80,台海岸活虾餐厅(玉古路店)
30.27359581,120.168647,84,周素珍传统湖州馄饨店(直戒坛寺店)
30.31855271,120.2907495,70,汉湘纯味鸭脖(九堡店)
30.22253654,120.142421,100,相聚楼饭店
30.26466365,120.1276253,90,问粥道饭店
30.26527451,120.1559638,70,一口断牛轧糖
30.25072592,120.1731743,90,蓝山咖啡馆(定安总店)
30.21087267,120.095287,80,礼耕堂茶庄
30.32081795,119.4535555,70,天目山一口天酒家
30.31567764,120.1394234,90,弄堂里(小河路店)
30.32160263,120.3416117,70,刘家厨房(高沙店)
30.38615211,120.302406,80,五芳斋
30.21294816,120.0939927,60,五星人家
29.69118185,119.6854635,70,金富柴火饭店
30.29560089,120.1652985,90,农夫烤鱼(河东路店)
30.29366314,120.1271212,90,咬不得高祖生煎(文一物美店)
30.23470306,120.1265902,80,春夏秋冬芭萝娜山地餐厅
30.2573451,120.1890012,70,洪妹面馆
30.19060261,120.0966944,70,清风茶庄
29.81081688,119.6811854,60,老太婆饭店(富春路店)
30.04002272,119.950597,100,马蒂尔咖啡
30.17986916,120.2728892,80,澳门豆捞(萧山总店)
30.25463076,120.0513321,80,西溪福临乐汇酒店餐厅
29.47803697,119.2803049,60,肯德基(建德新安店)
30.2448349,120.176558,80,薄荷庭院
30.28989792,120.1514877,90,名人名家(文二店)
30.25767452,120.1696688,80,必胜客(湖滨商贸店)
30.19138085,120.1771741,80,杭州华美达大酒店
30.26664759,120.1323305,80,浮力森林(玉泉店)
30.24752269,120.1733717,70,百都酒家(华光店)
30.28318797,120.1066719,70,西安风味小吃店
30.31582023,120.1552848,70,大娘水饺(大关路欧尚店)
30.217582,120.1766594,100,可莎蜜兒(复兴南街店)
30.26320076,120.1875992,80,两岸咖啡(建国中路店)
30.26650047,120.213501,80,两岸咖啡(新塘路店)
30.19202449,120.4632625,80,澳门豆捞(友谊路店)
30.28652552,120.1607363,80,可莎蜜兒(湖墅南路店)
30.26436423,120.1268249,60,红灯笼菜馆(青芝坞店)
30.2543061,120.174983,80,九月生活(青年店)
30.24495651,120.1050593,80,袁阿姨豆腐干
30.31197915,120.3534236,80,可莎蜜兒(下沙香榭里店)
30.30037669,120.1061616,70,满记甜品(印象城店)
30.26653892,120.2074588,80,名人名家(秋涛北路店)
30.32320036,120.1508586,80,可莎蜜兒(衢州街店)
30.25480838,120.1747829,90,L'amour拉姆咖啡·西餐酒吧(青年店)
30.28045804,120.1302299,90,湘绅家厨
29.80940713,119.6817388,70,华莱士(桐庐桐君店)
30.24474335,120.1835906,70,五芳斋(高银街店)
30.26080083,120.1679647,80,杭州君悦酒店·酥园
30.25749609,120.2214874,90,张生记(万象城店)
30.28660011,120.1705017,80,克莉丝汀(文晖店)
30.25790024,120.1696014,90,斗牛士(湖滨店)
30.26452695,120.2021583,60,东阳名菜馆(双菱店)
30.16690629,120.0854659,100,可莎蜜兒(转塘店)
30.24174487,120.1829852,70,浮力森林(江城店)
30.26221771,120.1740868,70,五芳斋嘉兴粽子(浣纱路店)
30.28774513,120.1104552,80,丹比艺术蛋糕(文新店)
30.19346717,120.1636254,70,小绍欣·味品经典杭帮菜(彩虹城店)
30.25863116,120.1440368,70,香格里拉饭店豪华阁
30.28910065,120.1308975,100,一席地鸡窝(文二店)
29.91611115,119.5285802,70,笑笑农家乐饭店
29.49007239,119.2995132,70,一席地鸡窝(建德店)
29.79223645,119.6974083,60,绿洲生态园酒店
30.43740158,119.7255387,70,九山沟饭店
30.17481736,120.1605496,70,北京片皮烤鸭
30.22775173,119.7120713,70,必胜客(临安万华店)
30.24984613,120.1715683,100,一茶一坐台式融合料理(西湖银泰店)
30.32529054,120.1616176,80,新安江奶酸菜鱼(城市学院店)
30.29190376,120.1677632,80,聚乐园菜馆
30.28313065,120.143462,78,胖子烧饼
30.32488251,120.3729924,70,闻潮酒楼（计量店）
30.1557312,120.2634663,70,兰州拉面(潘水店)
30.05771076,119.9658559,90,菲滋意式餐厅(富阳物美店)
30.25801659,120.1709778,90,食之秘(湖滨银泰店in77店)
30.23815196,120.1300028,60,茅草屋
30.28186508,120.2144284,70,华辰银座西餐厅
30.2646496,120.1831055,70,温州汤糰店(新华路店)
30.26835149,120.1827069,20,桐山村(新华路店)
30.28387388,120.1528003,70,遇花溪苗家牛肉粉(文三店)
30.32162406,120.3433538,70,福家煲店(文渊路总店)
30.17640903,120.1615327,80,黑泷堂饮铺(滨江杨家墩店)
30.27860691,120.0779943,70,蒋村酒楼
30.31262779,120.3434589,60,下沙都尚美食广场
30.26434922,120.1832054,80,老娘舅中式快餐(新华路店)
30.26136696,120.1935989,70,唐宁街八号
30.21349907,120.2157974,70,和+台湾火锅(星光大道店)
30.26840014,120.1757946,80,丹比艺术蛋糕(中山店)
30.28368674,120.1771978,70,永和大王(朝晖店)
30.31502707,120.1344084,60,新腾飞蒸菜馆(赵伍路店)
30.28013452,120.1432611,70,POST驿汇
30.18668267,120.2692661,80,全金釜韩国烧烤
30.19147613,120.1692502,80,甘蓝咖啡(江南大道店)
30.25072708,120.200074,70,元祖食品(杭海店)
30.28593063,120.1383933,78,老街传统面铺(影业路店)
30.27348137,120.1741194,76,丁哥黑鱼馆（中北店）
30.28634262,120.1545098,70,哈尔滨饺子
30.257278,120.171254,94,Thank u mom
30.16569669,120.2769188,70,浮力森林(人民路店)
30.27613199,120.1729881,80,德寿宫韩国料理(武林广场店)
30.17266655,120.1585223,70,重庆鸡公煲(滨江店)
30.31545413,120.2734766,70,永和大王(金海城店)
30.23810005,120.2089005,80,克莉丝汀(近江店)
30.26571274,120.2116596,90,第二乐章(庆春银泰店)
30.40111039,120.1562173,70,老地方土菜馆
30.24994218,120.1718694,90,BreadTalk面包新语(西湖银泰店)
30.25652229,120.2065557,60,阿舵餐饮(孔雀大厦店)
30.2964494,120.1539975,60,德克士(文一店)
30.29479893,120.1567117,80,可莎蜜兒(米市店)
30.39536773,119.547478,70,竹林农家
30.33445523,120.1532655,80,九月生活(永庆路店)
30.27235794,120.1724461,70,台湾手抓饼（百井坊巷店）
30.27890015,120.1402969,100,沸腾鱼乡(黄姑山路店)
30.30603456,120.1723666,100,岽阳餐馆(绍兴路店)
29.80224281,119.6921835,70,肯德基(桐庐富春江店)
30.26204681,120.1302961,60,江山土菜馆(青芝坞店)
30.20379448,120.2554481,70,幺妹鱼庄
30.32031822,120.3983739,70,街客(下沙店)
30.18423474,120.1600182,80,杭邦小江南
30.24674416,120.1717488,90,沸腾鱼乡已迁至武林路76号2楼(吴山广场店)
30.27677846,120.1060756,80,可莎蜜兒(莲花二店)
30.28390141,120.1512934,60,百年锅贴(文三路店)
30.28856397,120.1272248,90,台海岸活虾餐厅(西湖国际店)
30.21265602,120.2144905,70,合一食府
30.31259905,120.1752686,60,九芝斋(三塘店)
30.06854439,119.3485896,60,外婆家农家乐
29.61894018,119.051395,70,秀水缘餐厅
30.2704119,120.1447663,80,两岸咖啡(曙光路店)
30.22591422,120.1357029,80,满觉人家土菜馆
30.23347447,119.7352939,70,河畔人家
30.3163414,120.0935022,70,茶桔便(紫金港店)
30.26310903,120.2056643,80,丹比艺术蛋糕(采二店)
30.25353152,120.1727758,70,正宗重庆麻辣烫(浣纱店)
30.2722776,120.1400502,80,必胜客(曙光店)
29.47735364,119.2882014,70,爵士岛咖啡(严东关路店)
30.2269392,120.1541728,20,蓝天清水湾国际大酒店餐厅
